[
 {
 "type": "Educational",
 "lat": "53.71174",
 "lng": "23.8259",
 "photo": "8",
 "address": "улица Максима Горького, 95, Гродно, Беларусь",
 "faculties": [ {"title": "Факультет экономики и управления", "site": "http://fem.grsu.by/"} ]
 },
 {
 "type": "Educational",
 "lat": "53.70951",
 "lng": "23.81184",
 "photo": "12",
 "address": "улица Комарова, 3, Гродно, Беларусь",
 "faculties": [ {"title": "Факультет инновационных технологий машиностроения", "site": "http://fit.grsu.by/"} ]
 },
 {
 "type": "Educational",
 "lat": "53.706348",
 "lng": "23.824561",
 "photo": "11",
 "address": "улица Курчатова, 1а, Гродно, Беларусь",
 "faculties": [ {"title": "Инженерно-строительный факультет", "site": "http://fbt.grsu.by/"} ]
 },
 {
 "type": "Educational",
 "lat": "53.7042",
 "lng": "23.80766",
 "photo": "3",
 "address": "улица Врублевского, 33, Гродно, Беларусь",
 "faculties": [ {"title": "Физико-технический факультет", "site": "http://ftf.grsu.by/"} ]
 },
 {
 "type": "Educational",
 "lat": "53.701313",
 "lng": "23.812121",
 "photo": "7",
 "address": "Бульвар Ленинского Комсомола, 21, Гродно, Беларусь",
 "faculties": [ {"title": "Факультет психологии", "site": "http://psf.grsu.by/"} ]
 },
 {
 "type": "Educational",
 "lat": "53.69569",
 "lng": "23.82636",
 "photo": "4",
 "address": "переулок Доватора, 3/1, Гродно, Беларусь",
 "faculties": [ {"title": "Факультет биологии и экологии", "site": "http://fbe.grsu.by/"}, {"title": "Юридический факультет", "site": "http://lf.grsu.by/"} ]
 },
 {
 "type": "Educational",
 "lat": "53.688702",
 "lng": "23.83508",
 "photo": "10",
 "address": "улица Дзержинского, 28, Гродно, Беларусь",
 "faculties": [ {"title": "Факультет искусств и дизайна", "site": "http://art.grsu.by/"} ]
 },
 {
 "type": "Educational",
 "lat": "53.684914",
 "lng": "23.839661",
 "photo": "1",
 "address": "улица Ожешко, 22, Гродно, Беларусь",
 "faculties": [ {"title": "Факультет математики и информатики", "site": "http://mf.grsu.by/"} ]
 },
 {
 "type": "Educational",
 "lat": "53.68336",
 "lng": "23.83954",
 "photo": "2",
 "address": "улица Ленина, 32, Гродно, Беларусь",
 "faculties": [ {"title": "Филологический факультет", "site": "http://phf.grsu.by/"} ]
 },
 {
 "type": "Educational",
 "lat": "53.68012",
 "lng": "23.82804",
 "photo": "6",
 "address": "Октябрьская улица, 5, Гродно, Беларусь",
 "faculties": [ {"title": "Факультет истории, коммуникации и туризма", "site": "http://fh.grsu.by/"}, {"title": "Факультет довузовской подготовки", "site": "http://ctest.grsu.by/"} ]
 },
 {
 "type": "Educational",
 "lat": "53.67883",
 "lng": "23.84685",
 "photo": "5",
 "address": "улица Захарова, 32, Гродно, Беларусь ",
 "faculties": [ {"title": "Педагогический факультет", "site": "http://fp.grsu.by/"}, {"title": "Факультет физической культуры", "site": "http://ffc.grsu.by/"} ]
 },
 {
 "type": "Educational",
 "lat": "53.666317",
 "lng": "23.776501",
 "photo": "9",
 "address": "улица Фолюш, 15/189, Гродно, Беларусь",
 "faculties": [ {"title": "Военный факультет", "site": "http://mil.grsu.by/"} ]
 },
 {
 "type": "Hostel",
 "lat": "53.709912",
 "lng": "23.851855",
 "photo": "o5",
 "address": "улица Лиможа, 27/1, Гродно, Беларусь",
 "number": "5"
 },
 {
 "type": "Hostel",
 "lat": "53.700103",
 "lng": "23.815752",
 "photo": "o1",
 "address": "Бульвар Ленинского Комсомола, 3, Гродно, Беларусь",
 "number": "3"
 },
 {
 "type": "Hostel",
 "lat": "53.694411",
 "lng": "23.826803",
 "photo": "o2",
 "address": "улица Доватора, 27, Гродно, Беларусь",
 "number": "2"
 },
 {
 "type": "Hostel",
 "lat": "53.68149",
 "lng": "23.85449",
 "photo": "o4",
 "address": "улица Пролетарская, 16, Гродно, Беларусь",
 "number": "4"
 }
 ]